,Unnamed: 0,name,place_id,types,lat,lng,rating,user_ratings_total,Tag,Busy_Time
200,200,臺南市兒福中心-兒童館,ChIJPeFUym12bjQRrbPTPws2OBA,"['tourist_attraction', 'point_of_interest', 'establishment']",22.9913348,120.18652879999999,4.4,653.0,"['全部', '冷氣', '玩具', '開心', '門票', '假日', '足球', '積木', '安全', '舒適', 'cp值']","[['6時', '0%'], ['7時', '0%'], ['8時', '0%'], ['9時', '8%'], ['10時', '8%'], ['11時', '4%'], ['12時', '1%'], ['13時', '2%'], ['14時', '5%'], ['15時', '6%'], ['16時', '5%'], ['17時', '1%'], ['18時', '0%'], ['19時', '0%'], ['20時', '0%'], ['21時', '0%'], ['22時', '0%'], ['23時', '0%']]"
201,201,台南聖教會 Tainan Holiness Church,ChIJmfXng212bjQR3SFvWcn61m8,"['church', 'tourist_attraction', 'place_of_worship', 'point_of_interest', 'establishment']",22.9947975,120.18513329999999,4.7,519.0,"['全部', '神', '心靈', '感受', '姐妹', '祝福', '舒適', '詩', '音樂']","[['6時', '0%'], ['7時', '0%'], ['8時', '22%'], ['9時', '50%'], ['10時', '65%'], ['11時', '55%'], ['12時', '44%'], ['13時', '48%'], ['14時', '60%'], ['目前繁忙程度：100%', '69%)'], ['16時', '72%'], ['17時', '68%'], ['18時', '59%'], ['19時', '45%'], ['20時', '32%'], ['21時', '20%'], ['22時', '11%'], ['23時', '0%']]"
202,202,水萍塭公園,ChIJVwLOQXd2bjQRF-y5W063HHw,"['tourist_attraction', 'park', 'point_of_interest', 'establishment']",22.986210600000003,120.1934368,4.1,5360.0,"['全部', '松鼠', '兒童遊戲', '沙坑', '抽煙', '腹地', '兒童遊樂設施', '鴿子', '步道', '警察', '放電']","[['4時', '1%'], ['5時', '2%'], ['6時', '14%'], ['7時', '31%'], ['8時', '46%'], ['9時', '55%'], ['10時', '56%'], ['11時', '54%'], ['12時', '54%'], ['13時', '61%'], ['14時', '74%'], ['目前繁忙程度：98%', '88%)'], ['16時', '98%'], ['17時', '100%'], ['18時', '92%'], ['19時', '77%'], ['20時', '58%'], ['21時', '38%'], ['22時', '22%'], ['23時', '9%'], ['0時', '0%'], ['1時', '1%'], ['2時', '1%'], ['3時', '1%']]"
203,203,石珠公園,ChIJiwDT4Qp2bjQRQ8Ptpwm2Psg,"['park', 'tourist_attraction', 'point_of_interest', 'establishment']",22.987409399999997,120.1803875,4.1,50.0,"['全部', '運動', '籃球場']","[['4時', '2%'], ['5時', '2%'], ['6時', '2%'], ['7時', '2%'], ['8時', '2%'], ['9時', '2%'], ['10時', '2%'], ['11時', '2%'], ['12時', '2%'], ['13時', '2%'], ['14時', '5%'], ['15時', '33%'], ['16時', '69%'], ['17時', '87%'], ['18時', '71%'], ['19時', '38%'], ['20時', '17%'], ['21時', '12%'], ['22時', '7%'], ['23時', '2%'], ['0時', '2%'], ['1時', '2%'], ['2時', '2%'], ['3時', '2%']]"
204,204,石頭公園,ChIJW1XN_eF1bjQRm78ewleItyY,"['park', 'tourist_attraction', 'point_of_interest', 'establishment']",22.9852171,120.1764789,4.0,94.0,"['全部', '門票', '廢墟', '收費', '土地', '感覺', '懷舊', '蚊', '復古', '攝影']","[['6時', '0%'], ['7時', '0%'], ['8時', '45%'], ['9時', '59%'], ['10時', '59%'], ['11時', '57%'], ['12時', '63%'], ['13時', '72%'], ['14時', '75%'], ['15時', '68%'], ['16時', '54%'], ['17時', '36%'], ['18時', '0%'], ['19時', '0%'], ['20時', '0%'], ['21時', '0%'], ['22時', '0%'], ['23時', '0%']]"
205,205,新藝市集,ChIJZ2jpi3F2bjQRROnkUyqHKyE,"['tourist_attraction', 'point_of_interest', 'establishment']",22.992076100000002,120.187418,0.0,0.0,[],[]
206,206,藍晒圖文創園區,ChIJtbdB0Xt2bjQR1IE4qcWD-lg,"['tourist_attraction', 'restaurant', 'food', 'point_of_interest', 'store', 'establishment']",22.987102,120.19734540000002,4.2,20439.0,"['全部', '文創', '文青', '創意', '市集', '文藝', '壁畫', '宿舍', '塗鴉', '區域', '聚落']","[['6時', '0%'], ['7時', '0%'], ['8時', '0%'], ['9時', '0%'], ['10時', '32%'], ['11時', '46%'], ['12時', '57%'], ['13時', '67%'], ['14時', '77%'], ['目前繁忙程度：100%', '89%)'], ['16時', '99%'], ['17時', '100%'], ['18時', '89%'], ['19時', '68%'], ['20時', '44%'], ['21時', '0%'], ['22時', '0%'], ['23時', '0%']]"
207,207,新松金樓遺址,ChIJKYLqfnB2bjQR_At7eNPf0r8,"['tourist_attraction', 'point_of_interest', 'establishment']",22.9903604,120.19330559999999,0.0,0.0,[],[]
208,208,康樂市場,ChIJd6IdK2V2bjQRg02nT99aidQ,"['tourist_attraction', 'point_of_interest', 'establishment']",22.992289000000003,120.1962659,3.9,212.0,"['全部', '小吃', '衣服']","[['6時', '0%'], ['7時', '0%'], ['8時', '0%'], ['9時', '0%'], ['10時', '39%'], ['11時', '68%'], ['12時', '79%'], ['13時', '73%'], ['14時', '69%'], ['目前繁忙程度：88%', '76%)'], ['16時', '76%'], ['17時', '54%'], ['18時', '0%'], ['19時', '0%'], ['20時', '0%'], ['21時', '0%'], ['22時', '0%'], ['23時', '0%']]"
209,209,台南林百貨,ChIJrZJc4GJ2bjQRa3BRyIgtRcM,"['department_store', 'tourist_attraction', 'point_of_interest', 'store', 'establishment']",22.9917925,120.2025232,4.3,18159.0,"['全部', '歷史', '建築', '伴手禮', '懷舊', '風格', '地標', '現代化']","[['6時', '0%'], ['7時', '0%'], ['8時', '0%'], ['9時', '0%'], ['10時', '0%'], ['11時', '49%'], ['12時', '70%'], ['13時', '89%'], ['14時', '100%'], ['目前繁忙程度：100%', '99%)'], ['16時', '88%'], ['17時', '70%'], ['18時', '0%'], ['19時', '0%'], ['20時', '0%'], ['21時', '0%'], ['22時', '0%'], ['23時', '0%']]"
210,210,文創plus 台南創意中心,ChIJ8Q1AaX12bjQRyzRE5ckbBbI,"['tourist_attraction', 'point_of_interest', 'establishment']",22.9888336,120.2042058,4.2,367.0,"['全部', '樓', '空間', '日式建築', '古蹟', '悠閒', '展覽館', '廁所', '區', '販賣', '設計']","[['', '%']]"
211,211,嘉南農田水利會,ChIJrx3iqWJ2bjQRiBcwUBqAvMQ,"['tourist_attraction', 'point_of_interest', 'establishment']",22.9906984,120.20509799999999,4.0,32.0,"['全部', '建築', '日治時期']",[]
212,212,葉石濤文學紀念館,ChIJ77e_NH12bjQRvE_q25BxhpU,"['museum', 'tourist_attraction', 'point_of_interest', 'establishment']",22.9909424,120.2036922,4.2,308.0,"['全部', '作品', '建築', '日治時期', '古蹟', '感覺', '土地', '展覽', '展場']","[['6時', '0%'], ['7時', '0%'], ['8時', '0%'], ['9時', '3%'], ['10時', '0%'], ['11時', '22%'], ['12時', '45%'], ['13時', '67%'], ['14時', '70%'], ['15時', '54%'], ['16時', '29%'], ['17時', '0%'], ['18時', '0%'], ['19時', '0%'], ['20時', '0%'], ['21時', '0%'], ['22時', '0%'], ['23時', '0%']]"
213,213,奎樓書院,ChIJl9BtoIh2bjQRumr06jfQhDE,"['tourist_attraction', 'point_of_interest', 'establishment']",22.9894449,120.209549,3.8,37.0,"['全部', '古蹟']",[]
214,214,原嘉南大圳組合事務所,ChIJBTYnqmJ2bjQR_K91emJyRxI,"['tourist_attraction', 'point_of_interest', 'establishment']",22.990568399999997,120.20506129999998,4.0,12.0,[],[]
215,215,六合境清水寺,ChIJX7pbOYh2bjQReRIgFnzFSU4,"['place_of_worship', 'tourist_attraction', 'point_of_interest', 'establishment']",22.991725,120.2061844,4.4,45.0,"['全部', '觀世音菩薩', '小巷', '歷史']","[['5時', '0%'], ['6時', '0%'], ['7時', '0%'], ['8時', '0%'], ['9時', '26%'], ['10時', '93%'], ['11時', '100%'], ['12時', '46%'], ['13時', '26%'], ['14時', '40%'], ['15時', '46%'], ['16時', '46%'], ['17時', '33%'], ['18時', '20%'], ['19時', '13%'], ['20時', '0%'], ['21時', '0%'], ['22時', '0%']]"
216,216,新心生活藝術館,ChIJbzTJzpF2bjQRdG78w5-HFyE,"['museum', 'tourist_attraction', 'point_of_interest', 'establishment']",22.990703,120.217584,4.3,45.0,"['全部', '藝術作品', '房子', '舒適']",[]
217,217,東寧運動公園,ChIJoTIBg5Z2bjQRoVzPyztKEyc,"['park', 'tourist_attraction', 'point_of_interest', 'establishment']",22.9913922,120.22475290000001,4.1,884.0,"['全部', '散步', '樹', '廁所', '綠', '籃球場', '松鼠', '設施', '網球場', '腹地']","[['4時', '1%'], ['5時', '0%'], ['6時', '11%'], ['7時', '24%'], ['8時', '36%'], ['9時', '43%'], ['10時', '43%'], ['11時', '35%'], ['12時', '27%'], ['13時', '24%'], ['14時', '32%'], ['目前繁忙程度：67%', '50%)'], ['16時', '71%'], ['17時', '84%'], ['18時', '83%'], ['19時', '67%'], ['20時', '42%'], ['21時', '18%'], ['22時', '0%'], ['23時', '1%'], ['0時', '1%'], ['1時', '1%'], ['2時', '1%'], ['3時', '1%']]"
218,218,千禧公園,ChIJU6TYhbB2bjQR2ykjNUH6mls,"['park', 'tourist_attraction', 'point_of_interest', 'establishment']",22.9859668,120.2403567,4.1,175.0,"['全部', '運動']",[]
219,219,九號公園,ChIJncrXQI52bjQRoTDStBl3lC0,"['park', 'tourist_attraction', 'point_of_interest', 'establishment']",22.991971,120.21503700000001,4.1,497.0,"['全部', '散步', '松鼠', '環境', '鴿子', '蚊子', '廁所', '電動車', '運動器材', '社區', '溜滑梯']","[['4時', '2%'], ['5時', '2%'], ['6時', '2%'], ['7時', '2%'], ['8時', '2%'], ['9時', '2%'], ['10時', '4%'], ['11時', '4%'], ['12時', '9%'], ['13時', '13%'], ['14時', '20%'], ['15時', '30%'], ['16時', '39%'], ['17時', '44%'], ['18時', '41%'], ['19時', '34%'], ['20時', '20%'], ['21時', '6%'], ['22時', '2%'], ['23時', '2%'], ['0時', '2%'], ['1時', '2%'], ['2時', '2%'], ['3時', '2%']]"
220,220,關聖里,ChIJtQST8rN2bjQRvCfYAwy5MyI,"['tourist_attraction', 'park', 'point_of_interest', 'establishment']",22.98617759999999,120.2467239,3.9,177.0,"['全部', '運動', '社區', '散步', '廁所', '停車', '兒童']","[['4時', '2%'], ['5時', '2%'], ['6時', '2%'], ['7時', '2%'], ['8時', '22%'], ['9時', '49%'], ['10時', '51%'], ['11時', '26%'], ['12時', '4%'], ['13時', '5%'], ['14時', '30%'], ['15時', '63%'], ['16時', '76%'], ['17時', '58%'], ['18時', '25%'], ['19時', '2%'], ['20時', '2%'], ['21時', '2%'], ['22時', '2%'], ['23時', '2%'], ['0時', '2%'], ['1時', '2%'], ['2時', '2%'], ['3時', '2%']]"
221,221,鯽潭橋,ChIJH3NcWrV2bjQRNkv-WyhKFMo,"['tourist_attraction', 'point_of_interest', 'establishment']",22.9910889,120.250441,3.3,12.0,[],[]
222,222,TJCOS台鉅美妝觀光工廠,ChIJ4QHDj0lxbjQRdo0g5kSkiJg,"['tourist_attraction', 'museum', 'point_of_interest', 'establishment']",22.988605,120.25708600000002,4.1,3336.0,"['全部', '化妝品', '女生', 'DIY', '用品', '無聊', '香皂', '製造', '遊覽車', '兒童遊戲']","[['6時', '0%'], ['7時', '0%'], ['8時', '0%'], ['9時', '37%'], ['10時', '48%'], ['11時', '49%'], ['12時', '49%'], ['13時', '56%'], ['14時', '67%'], ['目前繁忙程度：100%', '69%)'], ['16時', '56%'], ['17時', '0%'], ['18時', '0%'], ['19時', '0%'], ['20時', '0%'], ['21時', '0%'], ['22時', '0%'], ['23時', '0%']]"
223,223,郭姓祖祠－郭光侯古宅,ChIJX-e9UxFxbjQREzX8EX43PcQ,"['tourist_attraction', 'point_of_interest', 'establishment']",22.99102610000001,120.2803695,4.5,19.0,"['全部', '歷史']",[]
224,224,新化武德殿,ChIJdRBEqXpwbjQRpbG_yecjX6c,"['tourist_attraction', 'point_of_interest', 'establishment']",23.0334213,120.30871440000001,4.1,1649.0,"['全部', '地板', '日式建築', '日據時代', '維護', '殿', '木造', '文創']","[['6時', '0%'], ['7時', '0%'], ['8時', '0%'], ['9時', '10%'], ['10時', '20%'], ['11時', '40%'], ['12時', '0%'], ['13時', '70%'], ['14時', '80%'], ['15時', '90%'], ['16時', '90%'], ['17時', '0%'], ['18時', '0%'], ['19時', '0%'], ['20時', '0%'], ['21時', '0%'], ['22時', '0%'], ['23時', '0%']]"
225,225,綠谷西拉雅,ChIJ7TonbJNvbjQRxn99JHN_Zjk,"['tourist_attraction', 'point_of_interest', 'establishment']",23.016075100000002,120.36853020000001,4.0,963.0,"['全部', '爬山', '休閒', '步道', '運動', '愛玉', '小黑蚊', '蘿蔔糕', '生態', '黑木耳', '芬多精']","[['6時', '0%'], ['7時', '27%'], ['8時', '42%'], ['9時', '51%'], ['10時', '51%'], ['11時', '51%'], ['12時', '51%'], ['13時', '54%'], ['14時', '63%'], ['15時', '72%'], ['16時', '72%'], ['17時', '0%'], ['18時', '0%'], ['19時', '0%'], ['20時', '0%'], ['21時', '0%'], ['22時', '0%'], ['23時', '0%']]"
226,226,巨鱷觀景點,ChIJL4XTNrNobjQRwaPJWHRw0Ho,"['tourist_attraction', 'point_of_interest', 'establishment']",23.002389899999997,120.436278,2.9,35.0,[],[]
227,227,白水泉瀑布,ChIJK_MykRNdbjQRSAdmGQSfoko,"['tourist_attraction', 'point_of_interest', 'establishment']",23.01948699999999,120.55476589999999,3.1,33.0,[],"[['4時', '41%'], ['5時', '41%'], ['6時', '43%'], ['7時', '50%'], ['8時', '56%'], ['9時', '58%'], ['10時', '56%'], ['11時', '52%'], ['12時', '50%'], ['13時', '52%'], ['14時', '56%'], ['15時', '60%'], ['16時', '62%'], ['17時', '60%'], ['18時', '56%'], ['19時', '52%'], ['20時', '50%'], ['21時', '47%'], ['22時', '50%'], ['23時', '50%'], ['0時', '52%'], ['1時', '52%'], ['2時', '50%'], ['3時', '45%']]"
228,228,高雄杉林月美里樂善堂惜字亭,ChIJ-dr7pHhCbjQRb5_B2cbuifA,"['tourist_attraction', 'point_of_interest', 'establishment']",22.9482028,120.52847390000001,5.0,1.0,[],[]
229,229,高雄杉林上平里辰峰寺敬字亭,ChIJcRYRU7xCbjQR_Oz8zWzj8R0,"['tourist_attraction', 'point_of_interest', 'establishment']",22.9756125,120.5427808,3.0,4.0,[],[]
230,230,葫蘆雕刻藝術館,ChIJMd8aHM1CbjQRR4dlCkj3TRI,"['tourist_attraction', 'museum', 'point_of_interest', 'establishment']",22.9889421,120.5595895,4.3,30.0,[],[]
231,231,曾文溪口濕地,ChIJYRuEsdXbbTQRFKHYNtmdYW0,"['tourist_attraction', 'park', 'point_of_interest', 'establishment']",23.051928699999998,120.06836399999999,4.1,31.0,[],[]
232,232,台灣之門鹿耳門,ChIJPRDhHPbYbTQR2MT9fUjmlRw,"['tourist_attraction', 'point_of_interest', 'establishment']",23.037076100000004,120.1214125,4.4,44.0,[],"[['4時', '35%'], ['5時', '29%'], ['6時', '23%'], ['7時', '23%'], ['8時', '23%'], ['9時', '17%'], ['10時', '17%'], ['11時', '17%'], ['12時', '23%'], ['13時', '35%'], ['14時', '47%'], ['15時', '64%'], ['16時', '76%'], ['17時', '76%'], ['18時', '64%'], ['19時', '52%'], ['20時', '47%'], ['21時', '52%'], ['22時', '64%'], ['23時', '76%'], ['0時', '82%'], ['1時', '76%'], ['2時', '64%'], ['3時', '52%']]"
233,233,四草野生動物保護區,ChIJ8x-_7ozYbTQRRbbeX8wOtTY,"['tourist_attraction', 'park', 'point_of_interest', 'establishment']",23.029525399999997,120.13771259999999,4.1,169.0,"['全部', '生態', '紅樹林', '隧道', '綠色']","[['6時', '0%'], ['7時', '0%'], ['8時', '10%'], ['9時', '12%'], ['10時', '10%'], ['11時', '2%'], ['12時', '2%'], ['13時', '2%'], ['14時', '2%'], ['15時', '2%'], ['16時', '2%'], ['17時', '0%'], ['18時', '0%'], ['19時', '0%'], ['20時', '0%'], ['21時', '0%'], ['22時', '0%'], ['23時', '0%']]"
234,234,安平運河公園,ChIJ78Bw8RF2bjQRVL-SvfrmB7s,"['park', 'tourist_attraction', 'point_of_interest', 'establishment']",22.997428,120.17573590000002,4.2,506.0,"['全部', '散步', '夜景', '風景', '運動', '浪漫', '白天', '步道', '人行道', '美']","[['4時', '1%'], ['5時', '1%'], ['6時', '5%'], ['7時', '19%'], ['8時', '32%'], ['9時', '43%'], ['10時', '51%'], ['11時', '57%'], ['12時', '63%'], ['13時', '71%'], ['14時', '81%'], ['目前繁忙程度：57%', '92%)'], ['16時', '100%'], ['17時', '99%'], ['18時', '88%'], ['19時', '70%'], ['20時', '49%'], ['21時', '28%'], ['22時', '10%'], ['23時', '1%'], ['0時', '1%'], ['1時', '1%'], ['2時', '1%'], ['3時', '1%']]"
235,235,札哈木原住民公園,ChIJpQ8HkgN2bjQRsbJO8mMmw00,"['park', 'tourist_attraction', 'point_of_interest', 'establishment']",22.994951699999998,120.16400259999999,3.9,661.0,"['全部', '寶可夢', '表演', '文化', '假日', '感覺', '散步', '小孩', '展覽', '演唱']","[['6時', '0%'], ['7時', '0%'], ['8時', '0%'], ['9時', '26%'], ['10時', '36%'], ['11時', '42%'], ['12時', '46%'], ['13時', '47%'], ['14時', '48%'], ['目前繁忙程度：37%', '51%)'], ['16時', '56%'], ['17時', '0%'], ['18時', '0%'], ['19時', '0%'], ['20時', '0%'], ['21時', '0%'], ['22時', '0%'], ['23時', '0%']]"
236,236,安平鄉土文化館,ChIJP03l3hx2bjQRy9TGtn5FMOk,"['tourist_attraction', 'museum', 'point_of_interest', 'establishment']",23.0002954,120.16241219999999,4.2,59.0,"['全部', '宿舍', '展覽']",[]
237,237,劍獅公園,ChIJ_QqN2xp2bjQRZes212P31iY,"['park', 'tourist_attraction', 'point_of_interest', 'establishment']",22.9988397,120.1681548,3.9,316.0,"['全部', '可愛', '雕塑', '散步', '運河', '公仔', '路口', '裝置藝術', '寶可夢', '歷史', '設計']","[['4時', '1%'], ['5時', '1%'], ['6時', '1%'], ['7時', '1%'], ['8時', '1%'], ['9時', '1%'], ['10時', '1%'], ['11時', '1%'], ['12時', '1%'], ['13時', '9%'], ['14時', '16%'], ['15時', '24%'], ['16時', '35%'], ['17時', '55%'], ['18時', '77%'], ['19時', '81%'], ['20時', '61%'], ['21時', '25%'], ['22時', '1%'], ['23時', '1%'], ['0時', '1%'], ['1時', '1%'], ['2時', '1%'], ['3時', '1%']]"
238,238,安億橋下河底觀景步道,ChIJ_WkWTgN2bjQRuexM5cX2y_o,"['tourist_attraction', 'point_of_interest', 'establishment']",22.9982865,120.1638145,3.2,257.0,"['全部', '魚', '玻璃', '運河', '窗', '維護', '景觀', '散步', '生態', '晚上']","[['6時', '0%'], ['7時', '0%'], ['8時', '0%'], ['9時', '0%'], ['10時', '15%'], ['11時', '21%'], ['12時', '26%'], ['13時', '34%'], ['14時', '46%'], ['目前繁忙程度：45%', '60%)'], ['16時', '75%'], ['17時', '0%'], ['18時', '0%'], ['19時', '0%'], ['20時', '0%'], ['21時', '0%'], ['22時', '0%'], ['23時', '0%']]"
239,239,鄉飲大賓主題館,ChIJ09Aa5Bx2bjQR8GTGcp7Zg8I,"['tourist_attraction', 'food', 'point_of_interest', 'establishment']",23.001005399999997,120.16222520000001,2.8,4.0,[],[]
240,240,湖美麗景公園,ChIJDT6fkRR2bjQR60SrENtW-NY,"['park', 'tourist_attraction', 'point_of_interest', 'establishment']",23.002756,120.1829973,4.0,156.0,"['全部', '社區', '婚紗', '散步', '風格', '感覺']","[['4時', '1%'], ['5時', '1%'], ['6時', '0%'], ['7時', '6%'], ['8時', '11%'], ['9時', '13%'], ['10時', '16%'], ['11時', '22%'], ['12時', '34%'], ['13時', '53%'], ['14時', '66%'], ['15時', '66%'], ['16時', '56%'], ['17時', '48%'], ['18時', '46%'], ['19時', '50%'], ['20時', '50%'], ['21時', '44%'], ['22時', '33%'], ['23時', '17%'], ['0時', '2%'], ['1時', '1%'], ['2時', '1%'], ['3時', '1%']]"
241,241,兌悅門,ChIJfZcDzWd2bjQR02aNvuVt9ks,"['tourist_attraction', 'point_of_interest', 'establishment']",23.00070059999999,120.19436850000001,4.3,640.0,"['全部', '城門', '小巷', '城牆', '散步', '咖啡廳', '磚', '樓梯', '拆除', '日治時期']","[['4時', '3%'], ['5時', '1%'], ['6時', '16%'], ['7時', '30%'], ['8時', '38%'], ['9時', '45%'], ['10時', '48%'], ['11時', '50%'], ['12時', '55%'], ['13時', '61%'], ['14時', '68%'], ['15時', '68%'], ['16時', '63%'], ['17時', '53%'], ['18時', '40%'], ['19時', '26%'], ['20時', '16%'], ['21時', '6%'], ['22時', '3%'], ['23時', '3%'], ['0時', '3%'], ['1時', '3%'], ['2時', '3%'], ['3時', '3%']]"
242,242,臺郡三郊水仙宮,ChIJwRyTJ2R2bjQRtvAFmP9ZEGk,"['tourist_attraction', 'place_of_worship', 'point_of_interest', 'establishment']",22.99670619999999,120.19820490000001,4.4,123.0,"['全部', '市場', '古蹟', '廟宇', '小吃', '供奉', '柱']","[['5時', '0%'], ['6時', '23%'], ['7時', '38%'], ['8時', '55%'], ['9時', '70%'], ['10時', '76%'], ['11時', '76%'], ['12時', '70%'], ['13時', '64%'], ['14時', '64%'], ['15時', '64%'], ['16時', '64%'], ['17時', '55%'], ['18時', '0%'], ['19時', '0%'], ['20時', '0%'], ['21時', '0%'], ['22時', '0%']]"
243,243,原臺南運河海關,ChIJs7wv6292bjQRpoZPNQ_FduI,"['tourist_attraction', 'point_of_interest', 'establishment']",22.9963361,120.1925269,4.1,34.0,"['全部', '辦公室']",[]
244,244,台南 東寧文旅 (海安路.國華街.正興街.台南美食),ChIJITstV2R2bjQRTY8uefANrUc,"['tourist_attraction', 'lodging', 'food', 'point_of_interest', 'establishment']",22.994988100000004,120.1969855,4.1,535.0,[],[]
245,245,金華府,ChIJm0DtKmR2bjQRfdtZDkGqHaU,"['tourist_attraction', 'place_of_worship', 'point_of_interest', 'establishment']",22.997391,120.196582,4.3,56.0,,
246,246,樂暢居茄苳入製作維修,ChIJPVcRpGh2bjQRlfIGnDlYKuc,"['tourist_attraction', 'home_goods_store', 'point_of_interest', 'store', 'establishment']",22.999146,120.19313899999999,5.0,2.0,,
247,247,五條港歷史區域地方文化館,ChIJhy_3gWZ2bjQRWnuAsu6rUro,"['museum', 'tourist_attraction', 'point_of_interest', 'establishment']",22.9974854,120.1967932,4.2,9.0,,
248,248,臺灣祀典武廟,ChIJ_3sZgmF2bjQRJqNT18Vuoa0,"['tourist_attraction', 'place_of_worship', 'point_of_interest', 'establishment']",22.996658800000002,120.20226940000002,4.6,2801.0,,
249,249,開基玉皇宮,ChIJf_iGlop2bjQRE8tKT1uYg-A,"['tourist_attraction', 'place_of_worship', 'point_of_interest', 'establishment']",22.999877800000004,120.2069933,4.6,3673.0,,
